{"pageProps":{"addresses":[{"id":"Artur Karsten.json","min_children":0,"min_alter":18,"address_name":"Artur Karsten","address_street":"Kahrener Str.","address_street_no":"7","address_city":"Saarburg","address_plz":"54439","address_fon":"06581-923692","address_email":"Frauenarzt-Karsten@web.de","address_website":"https://www.frauenarzt-karsten.de","address_geo_latitude":"49.603697","address_geo_longitude":"6.537835","address_info":""},{"id":"Christine Raskovic.json","min_children":0,"min_alter":23,"address_name":"✅ Christine Raskovic","address_street":"Müllerstr.","address_street_no":"139","address_city":"Berlin","address_plz":"13353","address_fon":"030-4537041","address_email":"praxis@christine-raskovic.de","address_website":"https://www.christine-raskovic.de","address_geo_latitude":"52.549276","address_geo_longitude":"13.353524","address_info":""},{"id":"Daniel Karohl.json","min_children":0,"min_alter":30,"address_name":"Dipl.-Med. Daniel Karohl","address_street":"Schönhauser Allee","address_street_no":"118","address_city":"Berlin","address_plz":"10437","address_fon":"030-4451420","address_email":"","address_website":"","address_geo_latitude":"52.549126","address_geo_longitude":"13.413277","address_info":""},{"id":"Dipl.-Med. Kettmann, Dr. med. Natusch.json","min_children":0,"min_alter":25,"address_name":"✅ Dipl.-Med. Ingrid Kettmann, Dr. med. Christiane Natusch","address_street":"Kröllwitzer Str.","address_street_no":"40","address_city":"Halle","address_plz":"06120","address_fon":"0345-5232015","address_email":"","address_website":"https://www.medikum-halle.de/gemeinschaftspraxis-kettmann-und-natusch/home","address_geo_latitude":"51.505871","address_geo_longitude":"11.947498","address_info":"erforderlich: Überweisungsschein und Vorgespräch"},{"id":"Dr. med. Alexander Maucher.json","min_children":0,"min_alter":25,"address_name":"✅ Dr. med. A. Maucher - MVZ am OPZ Hürth","address_street":"Hürth Park ","address_street_no":"B111","address_city":"Hürth","address_plz":"50354","address_fon":"02233-974560","address_email":"opz-huerth@gmx.de","address_website":"https://www.mvz-opz.de","address_geo_latitude":"50.878683","address_geo_longitude":"6.874489","address_info":"Für Narkosefähigkeit: BMI < 40, bei internistischen Problemen bitte internistische Untersuchung, z.B. bei Störungen der Blutgerinnung"},{"id":"Dr. med. Ali Fathi.json","min_children":0,"min_alter":18,"address_name":"Dr. med. Ali Fathi - Medi Gyn","address_street":"Hessenring","address_street_no":"120","address_city":"Bad Homburg","address_plz":"61348","address_fon":"06172-6627151","address_email":"info@medi-gyn.de","address_website":"https://www.medi-gyn.de/","address_geo_latitude":"50.223449","address_geo_longitude":"8.611825","address_info":"eventuell nach medizinischer Indikation"},{"id":"Dr. med. Erik Riebe.json","min_children":0,"min_alter":22,"address_name":"Dr. med. Erik Riebe - Praxisklinik Warmbad","address_street":"Olof-Palme-Platz","address_street_no":"5","address_city":"Stralsund","address_plz":"18439","address_fon":"03831-292220","address_email":"kontakt@praxisklinik-warmbad.de","address_website":"https://www.praxisklinik-stralsund.de","address_geo_latitude":"54.318212","address_geo_longitude":"13.088943","address_info":"Vor dem Eingriff (nicht am OP-Tag), an einem Tag möglich: persönliches Gespräch mit Untersuchung und Vorstellung beim Anästhesisten. Entscheidung über Durchführung des Eingriffs erfolgt nach den Untersuchungen."},{"id":"Dr. med. Frank Albrecht.json","min_children":0,"min_alter":30,"address_name":"Dr. med. Frank Albrecht","address_street":"Krankenhausweg","address_street_no":"8","address_city":"Menden","address_plz":"58706","address_fon":"02373-15066","address_email":"info@frauenarzt-menden.de","address_website":"https://www.frauenarzt-menden.de","address_geo_latitude":"51.437463","address_geo_longitude":"7.799221","address_info":""},{"id":"Dr. med. Johann Sievers.json","min_children":0,"min_alter":25,"address_name":"Dr. med. Johann Sievers","address_street":"Landweg","address_street_no":"33","address_city":"Bad Bramstedt","address_plz":"24576","address_fon":"04192-3113","address_email":"mail@dr-sievers.de","address_website":"http://www.dr-sievers.de","address_geo_latitude":"53.921858","address_geo_longitude":"9.885629","address_info":"Eingriff in der Klinik Klosterstraße GbR in Neumünster"},{"id":"Dr. med. Jost Klippel.json","min_children":0,"min_alter":20,"address_name":"Dr. med. Jost Klippel","address_street":"Hohe Str.","address_street_no":"21","address_city":"Markersdorf","address_plz":"02829","address_fon":"03581-74200","address_email":"info@tagesklinik-holtendorf.de","address_website":"https://tagesklinik-holtendorf.de","address_geo_latitude":"51.149070","address_geo_longitude":"14.909539","address_info":""},{"id":"Dr. med. Oliver Krumm.json","min_children":0,"min_alter":26,"address_name":"✅ Dr. med. Oliver Krumm, Praxis Krumm, Fischmann und Partner","address_street":"Kaiserstr.","address_street_no":"32-34","address_city":"Offenbach","address_plz":"63065","address_fon":"069-884160","address_email":"Dr.Krumm@praxis-fischmann.de","address_website":"https://www.krummundpartner.de","address_geo_latitude":"50.103318","address_geo_longitude":"8.759084","address_info":"Kein festes Mindestalter - “Gesamtkonstellation” zählt; Voraussetzungen, Umstände etc. werden in einem Vorgespräch inkl. Untersuchung geklärt, dazu kommt eine Bedenkzeit "},{"id":"Frauenklinik Dachau.json","min_children":0,"min_alter":18,"address_name":"Prof. Dr. med. Florian Ebner - Frauenklinik Dachau","address_street":"Krankenhausstr.","address_street_no":"15","address_city":"Dachau","address_plz":"85221","address_fon":"08131-764298","address_email":"gyn.dachau@helios-gesundheit.de","address_website":"https://www.helios-gesundheit.de/kliniken/dachau/","address_geo_latitude":"48.265146","address_geo_longitude":"11.428568","address_info":"Voraussetzung: Darstellung nachvollziehbarer Gründe "},{"id":"Helios Klinik Müllheim.json","min_children":0,"min_alter":30,"address_name":"CÄ Gudrun König - Helios Klinik Müllheim","address_street":"Heliosweg","address_street_no":"1","address_city":"Müllheim","address_plz":"79379","address_fon":"07631-882400","address_email":"gudrun.koenig@helios-gesundheit.de","address_website":"https://www.helios-gesundheit.de/kliniken/muellheim/","address_geo_latitude":"47.811574","address_geo_longitude":"7.635138","address_info":"Im Ausnahmefall <30 Jahre bei med. Indikation oder Vielgebärenden"},{"id":"MVZ Gynäkologie Helle-Mitte.json","min_children":1,"min_alter":30,"address_name":"MVZ für Gynäkologie Helle-Mitte","address_street":"Stendaler Str.","address_street_no":"24","address_city":"Berlin","address_plz":"12627","address_fon":"030-9927790","address_email":"info@berliner-kinderwunsch.de","address_website":"https://www.berliner-kinderwunsch.de ","address_geo_latitude":"52.538013","address_geo_longitude":"13.605189","address_info":"Ab 35 auch kinderfrei"},{"id":"Praxis Frauenleben.json","min_children":0,"min_alter":30,"address_name":"Praxis Frauenleben","address_street":"Karmarschstraße","address_street_no":"40","address_city":"Hannover","address_plz":"30159","address_fon":"0511-2206393","address_email":"info@frauenleben.de","address_website":"https://www.frauenleben.de","address_geo_latitude":"52.371518","address_geo_longitude":"9.736616","address_info":"Für Pat. <30 J.: keine ausreichende Sicherheit der Methode wegen erhöhter Rate an Rekanalisierungen der Eileiter. Wir beraten dazu gern individuell und Pat. <30 J. zu alternativen Verhütungsmethoden"},{"id":"Rotkreuzkliniken Frankfurt.json","min_children":0,"min_alter":25,"address_name":"✅ Klinik Rotes Kreuz - Frankfurt","address_street":"Königswarterstr.","address_street_no":"8-16","address_city":"Frankfurt a.M.","address_plz":"60316","address_fon":"069-4071550","address_email":"gynaekologie@rotkreuzkliniken.de","address_website":"","address_geo_latitude":"50.117129","address_geo_longitude":"8.697897","address_info":""},{"id":"Vera Schoeder, Martin Teichmann.json","min_children":0,"min_alter":18,"address_name":"✅ Vera S. Schoeder, Martin D. H. Teichmann","address_street":"Wertheimer Str.","address_street_no":"95","address_city":"Hardheim","address_plz":"74736","address_fon":"06283-8989","address_email":"","address_website":"http://gyndoctors.de/","address_geo_latitude":"49.611573","address_geo_longitude":"9.470977","address_info":""}]},"__N_SSG":true}